{
    "type": "FeatureCollection",
    "features": [
        {
            "type": "Feature",
            "geometry": {
                "type": "Point",
                "coordinates": [
                    -68.7062882955157,
                    -32.82579828453338,
                    0
                ]
            },
            "properties": {
                "name": "Algarrobal AeroAlgarrobal"
            }
        },
        {
            "type": "Feature",
            "geometry": {
                "type": "Point",
                "coordinates": [
                    -66.91636869992516,
                    -28.79667885568269,
                    0
                ]
            },
            "properties": {
                "name": "Anillaco Aerocub La Rioja"
            }
        },
        {
            "type": "Feature",
            "geometry": {
                "type": "Point",
                "coordinates": [
                    -60.04491689044434,
                    -34.07969875354267,
                    0
                ]
            },
            "properties": {
                "name": "Arrecifes Aeromodelistas"
            }
        },
        {
            "type": "Feature",
            "geometry": {
                "type": "Point",
                "coordinates": [
                    -63.00659181337542,
                    -31.4158293924334,
                    0
                ]
            },
            "properties": {
                "name": "Arroyito AeroClub"
            }
        },
        {
            "type": "Feature",
            "geometry": {
                "type": "Point",
                "coordinates": [
                    -62.32730844201781,
                    -38.70023420836955,
                    0
                ]
            },
            "properties": {
                "name": "Bahía Blanca Pista de Aeromodelismo"
            }
        },
        {
            "type": "Feature",
            "geometry": {
                "type": "Point",
                "coordinates": [
                    -62.04747793144863,
                    -38.7011297050089,
                    0
                ]
            },
            "properties": {
                "name": "Bahía Blanca AABB"
            }
        },
        {
            "type": "Feature",
            "geometry": {
                "type": "Point",
                "coordinates": [
                    -59.49350392382189,
                    -33.82010240779478,
                    0
                ]
            },
            "properties": {
                "name": "Baradero Aeromodelismo"
            }
        },
        {
            "type": "Feature",
            "geometry": {
                "type": "Point",
                "coordinates": [
                    -71.18203186246842,
                    -41.09921239343863,
                    0
                ]
            },
            "properties": {
                "name": "Bariloche AeroClubBariloche"
            }
        },
        {
            "type": "Feature",
            "geometry": {
                "type": "Point",
                "coordinates": [
                    -58.79545846085255,
                    -34.30074450656144,
                    0
                ]
            },
            "properties": {
                "name": "Belén de Escobar AeroclubEscobar"
            }
        },
        {
            "type": "Feature",
            "geometry": {
                "type": "Point",
                "coordinates": [
                    -62.70088163340973,
                    -32.66359051682701,
                    0
                ]
            },
            "properties": {
                "name": "Bell Ville Aero Club"
            }
        },
        {
            "type": "Feature",
            "geometry": {
                "type": "Point",
                "coordinates": [
                    -60.48179901593633,
                    -35.14068714642407,
                    0
                ]
            },
            "properties": {
                "name": "Bragado Aero Club"
            }
        },
        {
            "type": "Feature",
            "geometry": {
                "type": "Point",
                "coordinates": [
                    -58.27023315517485,
                    -35.11291084075464,
                    0
                ]
            },
            "properties": {
                "name": "Brandsen Club Aeromodelismo"
            }
        },
        {
            "type": "Feature",
            "geometry": {
                "type": "Point",
                "coordinates": [
                    -58.34748416593809,
                    -34.86102412102577,
                    0
                ]
            },
            "properties": {
                "name": "Buenos Aires Aeroclub La Caida"
            }
        },
        {
            "type": "Feature",
            "geometry": {
                "type": "Point",
                "coordinates": [
                    -58.60991631402164,
                    -34.62867776088677,
                    0
                ]
            },
            "properties": {
                "name": "Buenos Aires Aeromodelismo  El Palomar"
            }
        },
        {
            "type": "Feature",
            "geometry": {
                "type": "Point",
                "coordinates": [
                    -58.65559963149708,
                    -34.73612674947358,
                    0
                ]
            },
            "properties": {
                "name": "Buenos Aires AgrupacionPucara"
            }
        },
        {
            "type": "Feature",
            "geometry": {
                "type": "Point",
                "coordinates": [
                    -58.55675500978313,
                    -34.79693190079992,
                    0
                ]
            },
            "properties": {
                "name": "Buenos Aires Club-Newbery Moldonado"
            }
        },
        {
            "type": "Feature",
            "geometry": {
                "type": "Point",
                "coordinates": [
                    -58.51691708911221,
                    -34.73560063749407,
                    0
                ]
            },
            "properties": {
                "name": "Buenos Aires Club-Newbery Morales"
            }
        },
        {
            "type": "Feature",
            "geometry": {
                "type": "Point",
                "coordinates": [
                    -58.2131119311647,
                    -34.74232737952966,
                    0
                ]
            },
            "properties": {
                "name": "Buenos Aires EzpeletaRC"
            }
        },
        {
            "type": "Feature",
            "geometry": {
                "type": "Point",
                "coordinates": [
                    -58.46188347402563,
                    -34.52924249450605,
                    0
                ]
            },
            "properties": {
                "name": "Buenos Aires Public park flying"
            }
        },
        {
            "type": "Feature",
            "geometry": {
                "type": "Point",
                "coordinates": [
                    -62.07757469268549,
                    -33.12530626568742,
                    0
                ]
            },
            "properties": {
                "name": "Camilo Aldao AeroCamilo"
            }
        },
        {
            "type": "Feature",
            "geometry": {
                "type": "Point",
                "coordinates": [
                    -61.36828237343783,
                    -32.8127347911087,
                    0
                ]
            },
            "properties": {
                "name": "Cañada de Gomez Aero Club"
            }
        },
        {
            "type": "Feature",
            "geometry": {
                "type": "Point",
                "coordinates": [
                    -59.73448905273279,
                    -34.16782446986993,
                    0
                ]
            },
            "properties": {
                "name": "Capitán Sarmiento Aeroclub"
            }
        },
        {
            "type": "Feature",
            "geometry": {
                "type": "Point",
                "coordinates": [
                    -59.89358586951443,
                    -34.1360334419012,
                    0
                ]
            },
            "properties": {
                "name": "Capitán Sarmiento Club Aeromodelismo"
            }
        },
        {
            "type": "Feature",
            "geometry": {
                "type": "Point",
                "coordinates": [
                    -62.77791719892505,
                    -37.19585560159796,
                    0
                ]
            },
            "properties": {
                "name": "Carhué Aero Club"
            }
        },
        {
            "type": "Feature",
            "geometry": {
                "type": "Point",
                "coordinates": [
                    -61.38836240579154,
                    -35.632878492924,
                    0
                ]
            },
            "properties": {
                "name": "Carlos Casares Aeroclub"
            }
        },
        {
            "type": "Feature",
            "geometry": {
                "type": "Point",
                "coordinates": [
                    -62.4704629803742,
                    -35.42434829528603,
                    0
                ]
            },
            "properties": {
                "name": "Carlos Tejedor Aeroclub"
            }
        },
        {
            "type": "Feature",
            "geometry": {
                "type": "Point",
                "coordinates": [
                    -62.9836949271761,
                    -40.78551822272212,
                    0
                ]
            },
            "properties": {
                "name": "Carmen de Patagones Aeromodelismo"
            }
        },
        {
            "type": "Feature",
            "geometry": {
                "type": "Point",
                "coordinates": [
                    -62.97816717726116,
                    -40.76053197215371,
                    0
                ]
            },
            "properties": {
                "name": "Carmen de Patagones AAPN"
            }
        },
        {
            "type": "Feature",
            "geometry": {
                "type": "Point",
                "coordinates": [
                    -61.16387189603275,
                    -33.06279064264944,
                    0
                ]
            },
            "properties": {
                "name": "Casilda Aeromodelismo"
            }
        },
        {
            "type": "Feature",
            "geometry": {
                "type": "Point",
                "coordinates": [
                    -61.96097830523222,
                    -29.86428568027251,
                    0
                ]
            },
            "properties": {
                "name": "Ceres Aeromodelismo y Automodelismo"
            }
        },
        {
            "type": "Feature",
            "geometry": {
                "type": "Point",
                "coordinates": [
                    -61.93393985114428,
                    -29.87487337901927,
                    0
                ]
            },
            "properties": {
                "name": "Ceres CPCeres"
            }
        },
        {
            "type": "Feature",
            "geometry": {
                "type": "Point",
                "coordinates": [
                    -57.9948672969913,
                    -35.61178056047428,
                    0
                ]
            },
            "properties": {
                "name": "Chascomús ClubAeromodelismoCh"
            }
        },
        {
            "type": "Feature",
            "geometry": {
                "type": "Point",
                "coordinates": [
                    -60.03821990831448,
                    -34.96071696281429,
                    0
                ]
            },
            "properties": {
                "name": "Chivilcoy Aeromodelistas"
            }
        },
        {
            "type": "Feature",
            "geometry": {
                "type": "Point",
                "coordinates": [
                    -68.04351280970268,
                    -38.80502715132872,
                    0
                ]
            },
            "properties": {
                "name": "Cinco Saltos Los Chimangos"
            }
        },
        {
            "type": "Feature",
            "geometry": {
                "type": "Point",
                "coordinates": [
                    -58.15406705701595,
                    -32.26279667250381,
                    0
                ]
            },
            "properties": {
                "name": "Colón ACODAir"
            }
        },
        {
            "type": "Feature",
            "geometry": {
                "type": "Point",
                "coordinates": [
                    -67.5606813809188,
                    -45.90350212526136,
                    0
                ]
            },
            "properties": {
                "name": "Comodoro Rivadavia ACCR"
            }
        },
        {
            "type": "Feature",
            "geometry": {
                "type": "Point",
                "coordinates": [
                    -67.41320879505903,
                    -45.77266191799226,
                    0
                ]
            },
            "properties": {
                "name": "Comodoro Rivadavia Club de Aeromodelismo"
            }
        },
        {
            "type": "Feature",
            "geometry": {
                "type": "Point",
                "coordinates": [
                    -64.29807425413587,
                    -31.4003556660483,
                    0
                ]
            },
            "properties": {
                "name": "Córdoba Aeromodelismo La Mezquita"
            }
        },
        {
            "type": "Feature",
            "geometry": {
                "type": "Point",
                "coordinates": [
                    -64.31175383090621,
                    -31.36863840894981,
                    0
                ]
            },
            "properties": {
                "name": "Córdoba Aguilas Brancas"
            }
        },
        {
            "type": "Feature",
            "geometry": {
                "type": "Point",
                "coordinates": [
                    -64.15885545153476,
                    -31.21256523306901,
                    0
                ]
            },
            "properties": {
                "name": "Córdoba CCAeromodelismo"
            }
        },
        {
            "type": "Feature",
            "geometry": {
                "type": "Point",
                "coordinates": [
                    -64.26936792298854,
                    -31.4928878380908,
                    0
                ]
            },
            "properties": {
                "name": "Córdoba Club Aeromodelismo"
            }
        },
        {
            "type": "Feature",
            "geometry": {
                "type": "Point",
                "coordinates": [
                    -64.2446712261237,
                    -31.28010298500145,
                    0
                ]
            },
            "properties": {
                "name": "Córdoba Club-ACV"
            }
        },
        {
            "type": "Feature",
            "geometry": {
                "type": "Point",
                "coordinates": [
                    -64.27263795428456,
                    -31.44529401051935,
                    0
                ]
            },
            "properties": {
                "name": "Córdoba FADEA"
            }
        },
        {
            "type": "Feature",
            "geometry": {
                "type": "Point",
                "coordinates": [
                    -64.2618543050296,
                    -31.35898406426515,
                    0
                ]
            },
            "properties": {
                "name": "Córdoba Helis Parque San Martin"
            }
        },
        {
            "type": "Feature",
            "geometry": {
                "type": "Point",
                "coordinates": [
                    -61.89493225705794,
                    -37.45234984151574,
                    0
                ]
            },
            "properties": {
                "name": "Coronel Suárez Club de Aeromodelismo"
            }
        },
        {
            "type": "Feature",
            "geometry": {
                "type": "Point",
                "coordinates": [
                    -62.15232332618443,
                    -33.28522743233816,
                    0
                ]
            },
            "properties": {
                "name": "Corral de Bustos Agrup. Aeromodelista"
            }
        },
        {
            "type": "Feature",
            "geometry": {
                "type": "Point",
                "coordinates": [
                    -58.75290890814518,
                    -27.44741305634236,
                    0
                ]
            },
            "properties": {
                "name": "Corrientes Hobby Club"
            }
        },
        {
            "type": "Feature",
            "geometry": {
                "type": "Point",
                "coordinates": [
                    -60.27087566453451,
                    -32.02445120006511,
                    0
                ]
            },
            "properties": {
                "name": "Crespo Agrupación Aeromodelismo"
            }
        },
        {
            "type": "Feature",
            "geometry": {
                "type": "Point",
                "coordinates": [
                    -58.08887004230189,
                    -29.77410793842349,
                    0
                ]
            },
            "properties": {
                "name": "Curuzú Cuatiá Aeroclub"
            }
        },
        {
            "type": "Feature",
            "geometry": {
                "type": "Point",
                "coordinates": [
                    -64.27358529731038,
                    -35.879008078892,
                    0
                ]
            },
            "properties": {
                "name": "Eduardo Castex Club Aeromodelistas"
            }
        },
        {
            "type": "Feature",
            "geometry": {
                "type": "Point",
                "coordinates": [
                    -60.85028919844172,
                    -31.47173487423447,
                    0
                ]
            },
            "properties": {
                "name": "Esperanza C.A.C.E."
            }
        },
        {
            "type": "Feature",
            "geometry": {
                "type": "Point",
                "coordinates": [
                    -58.2952326440065,
                    -26.30039901375985,
                    0
                ]
            },
            "properties": {
                "name": "Formosa Aero Club"
            }
        },
        {
            "type": "Feature",
            "geometry": {
                "type": "Point",
                "coordinates": [
                    -67.6603910700981,
                    -35.03979759949014,
                    0
                ]
            },
            "properties": {
                "name": "General Alvear ALMA"
            }
        },
        {
            "type": "Feature",
            "geometry": {
                "type": "Point",
                "coordinates": [
                    -67.66057832657611,
                    -35.04096936841199,
                    0
                ]
            },
            "properties": {
                "name": "General Alvear Amigos del Viento"
            }
        },
        {
            "type": "Feature",
            "geometry": {
                "type": "Point",
                "coordinates": [
                    -67.72647185799445,
                    -34.97016165387338,
                    0
                ]
            },
            "properties": {
                "name": "General Alvear CDA El Nevado"
            }
        },
        {
            "type": "Feature",
            "geometry": {
                "type": "Point",
                "coordinates": [
                    -63.75682398294772,
                    -35.69059919985295,
                    0
                ]
            },
            "properties": {
                "name": "General Pico Aeroclub"
            }
        },
        {
            "type": "Feature",
            "geometry": {
                "type": "Point",
                "coordinates": [
                    -63.7319552472626,
                    -35.74063398022773,
                    0
                ]
            },
            "properties": {
                "name": "General Pico Pista de Aeromodelismo"
            }
        },
        {
            "type": "Feature",
            "geometry": {
                "type": "Point",
                "coordinates": [
                    -62.27607108566178,
                    -33.04196908924952,
                    0
                ]
            },
            "properties": {
                "name": "Inriville Agrupación Aeromodelistica"
            }
        },
        {
            "type": "Feature",
            "geometry": {
                "type": "Point",
                "coordinates": [
                    -63.56641768607887,
                    -35.23110452608163,
                    0
                ]
            },
            "properties": {
                "name": "Intendente Alvear CAACH"
            }
        },
        {
            "type": "Feature",
            "geometry": {
                "type": "Point",
                "coordinates": [
                    -60.93193465933575,
                    -34.55175137963288,
                    0
                ]
            },
            "properties": {
                "name": "Junín Aero Club"
            }
        },
        {
            "type": "Feature",
            "geometry": {
                "type": "Point",
                "coordinates": [
                    -61.01482468052151,
                    -34.65482219078908,
                    0
                ]
            },
            "properties": {
                "name": "Junín Planeadores"
            }
        },
        {
            "type": "Feature",
            "geometry": {
                "type": "Point",
                "coordinates": [
                    -62.63771749437005,
                    -32.88110525591488,
                    0
                ]
            },
            "properties": {
                "name": "Justiniano Posse Aeromodelismo"
            }
        },
        {
            "type": "Feature",
            "geometry": {
                "type": "Point",
                "coordinates": [
                    -57.71028499130317,
                    -34.98087159886934,
                    0
                ]
            },
            "properties": {
                "name": "La Plata Aeromodelista Hanger 11"
            }
        },
        {
            "type": "Feature",
            "geometry": {
                "type": "Point",
                "coordinates": [
                    -57.87995156816351,
                    -34.9682178371878,
                    0
                ]
            },
            "properties": {
                "name": "La Plata Aeromodelismo-LP"
            }
        },
        {
            "type": "Feature",
            "geometry": {
                "type": "Point",
                "coordinates": [
                    -58.05490005907137,
                    -34.92814283896445,
                    0
                ]
            },
            "properties": {
                "name": "La Plata CruzDelSur-RC"
            }
        },
        {
            "type": "Feature",
            "geometry": {
                "type": "Point",
                "coordinates": [
                    -60.66603316474037,
                    -31.29872547576207,
                    0
                ]
            },
            "properties": {
                "name": "Laguna Paiva Aeromodelistas"
            }
        },
        {
            "type": "Feature",
            "geometry": {
                "type": "Point",
                "coordinates": [
                    -59.13224481091838,
                    -35.21327804536944,
                    0
                ]
            },
            "properties": {
                "name": "Lobos AeromodelismoLobos"
            }
        },
        {
            "type": "Feature",
            "geometry": {
                "type": "Point",
                "coordinates": [
                    -58.48125422459676,
                    -34.71504898538302,
                    0
                ]
            },
            "properties": {
                "name": "Lomas de Mirador GrupoAlasLibres"
            }
        },
        {
            "type": "Feature",
            "geometry": {
                "type": "Point",
                "coordinates": [
                    -59.25556672964126,
                    -34.46479931146367,
                    0
                ]
            },
            "properties": {
                "name": "Luján Aero Jardin Los Leones"
            }
        },
        {
            "type": "Feature",
            "geometry": {
                "type": "Point",
                "coordinates": [
                    -68.8141119327785,
                    -32.96494033082816,
                    0
                ]
            },
            "properties": {
                "name": "Maipú ADAMA"
            }
        },
        {
            "type": "Feature",
            "geometry": {
                "type": "Point",
                "coordinates": [
                    -57.74719971530677,
                    -37.93454362803131,
                    0
                ]
            },
            "properties": {
                "name": "Mar del Plata AeroMDQ"
            }
        },
        {
            "type": "Feature",
            "geometry": {
                "type": "Point",
                "coordinates": [
                    -57.64354263855009,
                    -37.83430017816257,
                    0
                ]
            },
            "properties": {
                "name": "Mar del Plata C.A.M."
            }
        },
        {
            "type": "Feature",
            "geometry": {
                "type": "Point",
                "coordinates": [
                    -62.15121679120212,
                    -32.67996189171647,
                    0
                ]
            },
            "properties": {
                "name": "Marcos Juárez Aeromodelismo"
            }
        },
        {
            "type": "Feature",
            "geometry": {
                "type": "Point",
                "coordinates": [
                    -68.98493777793114,
                    -33.09261626855253,
                    0
                ]
            },
            "properties": {
                "name": "Mendoza Aeromodelismo Cordón del Plata"
            }
        },
        {
            "type": "Feature",
            "geometry": {
                "type": "Point",
                "coordinates": [
                    -68.91654980978288,
                    -32.97554865081635,
                    0
                ]
            },
            "properties": {
                "name": "Mendoza Aeroranch"
            }
        },
        {
            "type": "Feature",
            "geometry": {
                "type": "Point",
                "coordinates": [
                    -68.87322869103781,
                    -32.86380116590981,
                    0
                ]
            },
            "properties": {
                "name": "Mendoza Club de Aeromodelismo"
            }
        },
        {
            "type": "Feature",
            "geometry": {
                "type": "Point",
                "coordinates": [
                    -68.58762537813033,
                    -32.79560269812507,
                    0
                ]
            },
            "properties": {
                "name": "Mendoza Laguna de Soria Hidroavión"
            }
        },
        {
            "type": "Feature",
            "geometry": {
                "type": "Point",
                "coordinates": [
                    -68.68179795831036,
                    -32.72677016481265,
                    0
                ]
            },
            "properties": {
                "name": "Mendoza Los Algarrobos"
            }
        },
        {
            "type": "Feature",
            "geometry": {
                "type": "Point",
                "coordinates": [
                    -59.4575697416208,
                    -34.63999511155586,
                    0
                ]
            },
            "properties": {
                "name": "Mercedes Aero Club"
            }
        },
        {
            "type": "Feature",
            "geometry": {
                "type": "Point",
                "coordinates": [
                    -57.87363733895322,
                    -38.22972097302168,
                    0
                ]
            },
            "properties": {
                "name": "Miramar Club Aeromodelismo"
            }
        },
        {
            "type": "Feature",
            "geometry": {
                "type": "Point",
                "coordinates": [
                    -57.85040085832055,
                    -38.23677156745861,
                    0
                ]
            },
            "properties": {
                "name": "Miramar Gliders-Miramar"
            }
        },
        {
            "type": "Feature",
            "geometry": {
                "type": "Point",
                "coordinates": [
                    -57.64021449116041,
                    -30.2628312674156,
                    0
                ]
            },
            "properties": {
                "name": "Monte Caseros Aeromodelismo"
            }
        },
        {
            "type": "Feature",
            "geometry": {
                "type": "Point",
                "coordinates": [
                    -58.85423164241367,
                    -34.68203936340332,
                    0
                ]
            },
            "properties": {
                "name": "Moreno CADO-Aeromodelismo"
            }
        },
        {
            "type": "Feature",
            "geometry": {
                "type": "Point",
                "coordinates": [
                    -68.14872184465582,
                    -38.94281567132347,
                    0
                ]
            },
            "properties": {
                "name": "Neuquén Aeromodelismo"
            }
        },
        {
            "type": "Feature",
            "geometry": {
                "type": "Point",
                "coordinates": [
                    -58.81245765867693,
                    -38.60854694857826,
                    0
                ]
            },
            "properties": {
                "name": "Necochea Aeromodelismo"
            }
        },
        {
            "type": "Feature",
            "geometry": {
                "type": "Point",
                "coordinates": [
                    -59.75040825357941,
                    -32.39740043028215,
                    0
                ]
            },
            "properties": {
                "name": "Nogoyá Aeroclub Aeromodelismo"
            }
        },
        {
            "type": "Feature",
            "geometry": {
                "type": "Point",
                "coordinates": [
                    -60.93726112903802,
                    -35.4055029332416,
                    0
                ]
            },
            "properties": {
                "name": "Nueve de Julio AeroClub9deJulio"
            }
        },
        {
            "type": "Feature",
            "geometry": {
                "type": "Point",
                "coordinates": [
                    -60.26577730281445,
                    -36.86481669447766,
                    0
                ]
            },
            "properties": {
                "name": "Olavarria AOAeromodelismo"
            }
        },
        {
            "type": "Feature",
            "geometry": {
                "type": "Point",
                "coordinates": [
                    -64.32731755612082,
                    -23.15086090907584,
                    0
                ]
            },
            "properties": {
                "name": "Oran Club Aeromodelista"
            }
        },
        {
            "type": "Feature",
            "geometry": {
                "type": "Point",
                "coordinates": [
                    -60.37698910484218,
                    -31.75588570475578,
                    0
                ]
            },
            "properties": {
                "name": "Paraná Aero Club"
            }
        },
        {
            "type": "Feature",
            "geometry": {
                "type": "Point",
                "coordinates": [
                    -60.64865318590217,
                    -33.91579240413169,
                    0
                ]
            },
            "properties": {
                "name": "Pergamino AeroClub"
            }
        },
        {
            "type": "Feature",
            "geometry": {
                "type": "Point",
                "coordinates": [
                    -55.85761581977252,
                    -27.50472712372761,
                    0
                ]
            },
            "properties": {
                "name": "Posadas CEJO"
            }
        },
        {
            "type": "Feature",
            "geometry": {
                "type": "Point",
                "coordinates": [
                    -62.73839716737978,
                    -37.54217038199934,
                    0
                ]
            },
            "properties": {
                "name": "Puan Aeroclub"
            }
        },
        {
            "type": "Feature",
            "geometry": {
                "type": "Point",
                "coordinates": [
                    -62.09009638469766,
                    -38.83412707746802,
                    0
                ]
            },
            "properties": {
                "name": "Punta Alta AeromodelismoPAlta"
            }
        },
        {
            "type": "Feature",
            "geometry": {
                "type": "Point",
                "coordinates": [
                    -61.51213149166032,
                    -31.283124966526,
                    0
                ]
            },
            "properties": {
                "name": "Rafaela CARafaelino F2"
            }
        },
        {
            "type": "Feature",
            "geometry": {
                "type": "Point",
                "coordinates": [
                    -64.21035457144201,
                    -35.06047469331904,
                    0
                ]
            },
            "properties": {
                "name": "Realicó Aeroclub"
            }
        },
        {
            "type": "Feature",
            "geometry": {
                "type": "Point",
                "coordinates": [
                    -59.70827573356819,
                    -29.1497580033981,
                    0
                ]
            },
            "properties": {
                "name": "Reconquista Aero RC"
            }
        },
        {
            "type": "Feature",
            "geometry": {
                "type": "Point",
                "coordinates": [
                    -59.65233346682183,
                    -29.10721539605002,
                    0
                ]
            },
            "properties": {
                "name": "Reconquista Aero-Model-Club"
            }
        },
        {
            "type": "Feature",
            "geometry": {
                "type": "Point",
                "coordinates": [
                    -59.67610004396236,
                    -29.19558630147037,
                    0
                ]
            },
            "properties": {
                "name": "Reconquista Agrupación Aeromodelistas"
            }
        },
        {
            "type": "Feature",
            "geometry": {
                "type": "Point",
                "coordinates": [
                    -64.33659334458324,
                    -33.16374115819415,
                    0
                ]
            },
            "properties": {
                "name": "Rio Cuarto Aero Club"
            }
        },
        {
            "type": "Feature",
            "geometry": {
                "type": "Point",
                "coordinates": [
                    -64.08919493879245,
                    -32.16932610147529,
                    0
                ]
            },
            "properties": {
                "name": "Rio Tercero Aero Club"
            }
        },
        {
            "type": "Feature",
            "geometry": {
                "type": "Point",
                "coordinates": [
                    -68.47550407554802,
                    -33.23058867754833,
                    0
                ]
            },
            "properties": {
                "name": "Rivadavia Aeroclub-Mendoza"
            }
        },
        {
            "type": "Feature",
            "geometry": {
                "type": "Point",
                "coordinates": [
                    -60.75299421141084,
                    -32.90039922374309,
                    0
                ]
            },
            "properties": {
                "name": "Rosario AeronorteRosario"
            }
        },
        {
            "type": "Feature",
            "geometry": {
                "type": "Point",
                "coordinates": [
                    -60.58761179623927,
                    -33.04805342212458,
                    0
                ]
            },
            "properties": {
                "name": "Rosario ARA-WEB"
            }
        },
        {
            "type": "Feature",
            "geometry": {
                "type": "Point",
                "coordinates": [
                    -60.79914749784988,
                    -33.01113267934054,
                    0
                ]
            },
            "properties": {
                "name": "Rosario CAeroRosario"
            }
        },
        {
            "type": "Feature",
            "geometry": {
                "type": "Point",
                "coordinates": [
                    -64.95581818189514,
                    -25.82334164769126,
                    0
                ]
            },
            "properties": {
                "name": "Rosario de la Frontera Aero Club"
            }
        },
        {
            "type": "Feature",
            "geometry": {
                "type": "Point",
                "coordinates": [
                    -65.41411954507414,
                    -24.74815190376904,
                    0
                ]
            },
            "properties": {
                "name": "Salta Aeromodelismo"
            }
        },
        {
            "type": "Feature",
            "geometry": {
                "type": "Point",
                "coordinates": [
                    -59.44477103469739,
                    -34.22142583543234,
                    0
                ]
            },
            "properties": {
                "name": "San Antonio de Areco Agrup.Aeromodelista"
            }
        },
        {
            "type": "Feature",
            "geometry": {
                "type": "Point",
                "coordinates": [
                    -61.22246523962316,
                    -30.26623484063575,
                    0
                ]
            },
            "properties": {
                "name": "San Cristóbal Aero Club"
            }
        },
        {
            "type": "Feature",
            "geometry": {
                "type": "Point",
                "coordinates": [
                    -62.13490903978226,
                    -31.4137430524199,
                    0
                ]
            },
            "properties": {
                "name": "San Francisco Aero Club"
            }
        },
        {
            "type": "Feature",
            "geometry": {
                "type": "Point",
                "coordinates": [
                    -68.54577219942047,
                    -31.60253935533672,
                    0
                ]
            },
            "properties": {
                "name": "San Juan Centro de Aviación Civil"
            }
        },
        {
            "type": "Feature",
            "geometry": {
                "type": "Point",
                "coordinates": [
                    -60.57139328730749,
                    -30.76978209410875,
                    0
                ]
            },
            "properties": {
                "name": "San Justo AeroClubSanJusto"
            }
        },
        {
            "type": "Feature",
            "geometry": {
                "type": "Point",
                "coordinates": [
                    -60.78279530153636,
                    -32.73478185926298,
                    0
                ]
            },
            "properties": {
                "name": "San Lorenzo Aeromodelismo"
            }
        },
        {
            "type": "Feature",
            "geometry": {
                "type": "Point",
                "coordinates": [
                    -60.20140311441536,
                    -33.39115158495125,
                    0
                ]
            },
            "properties": {
                "name": "San Nicolás Aero Club"
            }
        },
        {
            "type": "Feature",
            "geometry": {
                "type": "Point",
                "coordinates": [
                    -59.72823157225481,
                    -33.70501375433796,
                    0
                ]
            },
            "properties": {
                "name": "San Pedro Aeromodelistas"
            }
        },
        {
            "type": "Feature",
            "geometry": {
                "type": "Point",
                "coordinates": [
                    -60.82974375367228,
                    -31.66750700144613,
                    0
                ]
            },
            "properties": {
                "name": "Santa Fe Club Aeromodelismo"
            }
        },
        {
            "type": "Feature",
            "geometry": {
                "type": "Point",
                "coordinates": [
                    -60.626359334402,
                    -31.6272380346275,
                    0
                ]
            },
            "properties": {
                "name": "Santa Fe CUASF"
            }
        },
        {
            "type": "Feature",
            "geometry": {
                "type": "Point",
                "coordinates": [
                    -64.28044472817906,
                    -36.58427884561525,
                    0
                ]
            },
            "properties": {
                "name": "Santa Rosa Club Aeromodelismo"
            }
        },
        {
            "type": "Feature",
            "geometry": {
                "type": "Point",
                "coordinates": [
                    -64.18745733291148,
                    -36.58484449301585,
                    0
                ]
            },
            "properties": {
                "name": "Santa Rosa Club de Planeadores"
            }
        },
        {
            "type": "Feature",
            "geometry": {
                "type": "Point",
                "coordinates": [
                    -64.3481510375333,
                    -27.77091027295405,
                    0
                ]
            },
            "properties": {
                "name": "Santiago del Estero Club Aeromodelista"
            }
        },
        {
            "type": "Feature",
            "geometry": {
                "type": "Point",
                "coordinates": [
                    -59.09570941664696,
                    -37.26948258087142,
                    0
                ]
            },
            "properties": {
                "name": "Tandil Centro Aeromodelista"
            }
        },
        {
            "type": "Feature",
            "geometry": {
                "type": "Point",
                "coordinates": [
                    -67.18127758101956,
                    -54.49984863572975,
                    0
                ]
            },
            "properties": {
                "name": "Tierra del Fuego Club Aeromodelismo TDF"
            }
        },
        {
            "type": "Feature",
            "geometry": {
                "type": "Point",
                "coordinates": [
                    -65.32612165984956,
                    -43.2373768223171,
                    0
                ]
            },
            "properties": {
                "name": "Trelew Aeromodelistas"
            }
        },
        {
            "type": "Feature",
            "geometry": {
                "type": "Point",
                "coordinates": [
                    -62.76959079589859,
                    -35.97430053089096,
                    0
                ]
            },
            "properties": {
                "name": "Trenque Lauquen Aero Club"
            }
        },
        {
            "type": "Feature",
            "geometry": {
                "type": "Point",
                "coordinates": [
                    -62.70082093967819,
                    -36.01567345849946,
                    0
                ]
            },
            "properties": {
                "name": "Trenque Lauquen Club de Planeadores"
            }
        },
        {
            "type": "Feature",
            "geometry": {
                "type": "Point",
                "coordinates": [
                    -60.33677517983005,
                    -38.38868657582456,
                    0
                ]
            },
            "properties": {
                "name": "Tres Arroyos Club-Pampa"
            }
        },
        {
            "type": "Feature",
            "geometry": {
                "type": "Point",
                "coordinates": [
                    -65.15597798216409,
                    -27.03642557149854,
                    0
                ]
            },
            "properties": {
                "name": "Tucumán Aeroclub Los Tucanes"
            }
        },
        {
            "type": "Feature",
            "geometry": {
                "type": "Point",
                "coordinates": [
                    -65.31251753425069,
                    -26.79655892746563,
                    0
                ]
            },
            "properties": {
                "name": "Tucumán RadioControl"
            }
        },
        {
            "type": "Feature",
            "geometry": {
                "type": "Point",
                "coordinates": [
                    -68.39124060365235,
                    -54.82849762662964,
                    0
                ]
            },
            "properties": {
                "name": "Ushuaia Aeromodelismo 1"
            }
        },
        {
            "type": "Feature",
            "geometry": {
                "type": "Point",
                "coordinates": [
                    -67.75815904959644,
                    -54.63412529265693,
                    0
                ]
            },
            "properties": {
                "name": "Ushuaia Aeromodelismo 2"
            }
        },
        {
            "type": "Feature",
            "geometry": {
                "type": "Point",
                "coordinates": [
                    -68.32121836916961,
                    -54.8147544656011,
                    0
                ]
            },
            "properties": {
                "name": "Ushuaia Aeromodelismo Indoor"
            }
        },
        {
            "type": "Feature",
            "geometry": {
                "type": "Point",
                "coordinates": [
                    -68.38069373772507,
                    -54.82538062032614,
                    0
                ]
            },
            "properties": {
                "name": "Ushuaia Aeromodelismo Optional"
            }
        },
        {
            "type": "Feature",
            "geometry": {
                "type": "Point",
                "coordinates": [
                    -61.96095989081649,
                    -33.68083172207295,
                    0
                ]
            },
            "properties": {
                "name": "Venado Tuerto AeroVenado"
            }
        },
        {
            "type": "Feature",
            "geometry": {
                "type": "Point",
                "coordinates": [
                    -60.17896642756813,
                    -32.5867109679912,
                    0
                ]
            },
            "properties": {
                "name": "Victoria Agrupación Aeromodelismo"
            }
        },
        {
            "type": "Feature",
            "geometry": {
                "type": "Point",
                "coordinates": [
                    -58.68159891573161,
                    -34.43089063622382,
                    0
                ]
            },
            "properties": {
                "name": "Victoria Club Aeromodelismo Delta"
            }
        },
        {
            "type": "Feature",
            "geometry": {
                "type": "Point",
                "coordinates": [
                    -60.68317489410596,
                    -27.59292666401424,
                    0
                ]
            },
            "properties": {
                "name": "Villa Angela Aero Club"
            }
        },
        {
            "type": "Feature",
            "geometry": {
                "type": "Point",
                "coordinates": [
                    -64.52788150591164,
                    -31.44603157367317,
                    0
                ]
            },
            "properties": {
                "name": "Villa Carlos Paz Aeromodelismo"
            }
        },
        {
            "type": "Feature",
            "geometry": {
                "type": "Point",
                "coordinates": [
                    -64.5640689250173,
                    -31.96441398869983,
                    0
                ]
            },
            "properties": {
                "name": "Villa General Belgrano Aero Club"
            }
        },
        {
            "type": "Feature",
            "geometry": {
                "type": "Point",
                "coordinates": [
                    -63.2581536168659,
                    -32.38881911125407,
                    0
                ]
            },
            "properties": {
                "name": "Villa Maria Aero Club"
            }
        },
        {
            "type": "Feature",
            "geometry": {
                "type": "Point",
                "coordinates": [
                    -65.42076352719783,
                    -33.64868852403288,
                    0
                ]
            },
            "properties": {
                "name": "Villa Mercedes Aeromodelismo"
            }
        },
        {
            "type": "Feature",
            "geometry": {
                "type": "Point",
                "coordinates": [
                    -63.28629438010752,
                    -32.4347534056946,
                    0
                ]
            },
            "properties": {
                "name": "Villa Nueva Agrup. Centro Aeromodelismo"
            }
        },
        {
            "type": "Feature",
            "geometry": {
                "type": "Point",
                "coordinates": [
                    -59.32560094352808,
                    -28.48986540361776,
                    0
                ]
            },
            "properties": {
                "name": "Villa Ocampo Aero Club"
            }
        },
        {
            "type": "Feature",
            "geometry": {
                "type": "Point",
                "coordinates": [
                    -59.08685415675129,
                    -34.11693337335353,
                    0
                ]
            },
            "properties": {
                "name": "Zarate Aeromodelistas"
            }
        },
        {
            "type": "Feature",
            "geometry": {
                "type": "Point",
                "coordinates": [
                    15.28347645128035,
                    47.54489811839611,
                    0
                ]
            },
            "properties": {
                "name": "Aflenzland MFI-Aflenz"
            }
        },
        {
            "type": "Feature",
            "geometry": {
                "type": "Point",
                "coordinates": [
                    14.13743168361276,
                    47.5406526399649,
                    0
                ]
            },
            "properties": {
                "name": "Aigen/Ennstal HSV"
            }
        },
        {
            "type": "Feature",
            "geometry": {
                "type": "Point",
                "coordinates": [
                    14.06319291964598,
                    48.2926162573354,
                    0
                ]
            },
            "properties": {
                "name": "Alkoven MFC"
            }
        },
        {
            "type": "Feature",
            "geometry": {
                "type": "Point",
                "coordinates": [
                    15.353235,
                    48.49720967888361,
                    0
                ]
            },
            "properties": {
                "name": "Allentsgschwendt IG Modellflug"
            }
        },
        {
            "type": "Feature",
            "geometry": {
                "type": "Point",
                "coordinates": [
                    9.630733892803327,
                    47.35719770746572,
                    0
                ]
            },
            "properties": {
                "name": "Altach MFV"
            }
        },
        {
            "type": "Feature",
            "geometry": {
                "type": "Point",
                "coordinates": [
                    15.42708542099892,
                    47.48795563394656,
                    0
                ]
            },
            "properties": {
                "name": "Allerheiligen-Mürzhofen MFG-AM"
            }
        },
        {
            "type": "Feature",
            "geometry": {
                "type": "Point",
                "coordinates": [
                    13.44245416487708,
                    47.37801578641164,
                    0
                ]
            },
            "properties": {
                "name": "Altenmarkt MFG-Pongau"
            }
        },
        {
            "type": "Feature",
            "geometry": {
                "type": "Point",
                "coordinates": [
                    13.25536441333717,
                    48.25546793273178,
                    0
                ]
            },
            "properties": {
                "name": "Altheim MFCA"
            }
        },
        {
            "type": "Feature",
            "geometry": {
                "type": "Point",
                "coordinates": [
                    11.47877,
                    47.268381,
                    0
                ]
            },
            "properties": {
                "name": "Ampass IG Modellflug"
            }
        },
        {
            "type": "Feature",
            "geometry": {
                "type": "Point",
                "coordinates": [
                    14.82290108545893,
                    48.10440586683879,
                    0
                ]
            },
            "properties": {
                "name": "Amstetten FMG"
            }
        },
        {
            "type": "Feature",
            "geometry": {
                "type": "Point",
                "coordinates": [
                    16.83632681639443,
                    47.78476080618449,
                    0
                ]
            },
            "properties": {
                "name": "Apetlon RC-Wasserflug"
            }
        },
        {
            "type": "Feature",
            "geometry": {
                "type": "Point",
                "coordinates": [
                    16.126586,
                    48.596484,
                    0
                ]
            },
            "properties": {
                "name": "Aspersdorf IGM"
            }
        },
        {
            "type": "Feature",
            "geometry": {
                "type": "Point",
                "coordinates": [
                    13.10384174305121,
                    48.08034698807882,
                    0
                ]
            },
            "properties": {
                "name": "Auerbach MFV"
            }
        },
        {
            "type": "Feature",
            "geometry": {
                "type": "Point",
                "coordinates": [
                    13.09673833386507,
                    47.18866227562848,
                    0
                ]
            },
            "properties": {
                "name": "Bad Hofgastein MFG-Gastein"
            }
        },
        {
            "type": "Feature",
            "geometry": {
                "type": "Point",
                "coordinates": [
                    13.90267913543378,
                    46.80038434382258,
                    0
                ]
            },
            "properties": {
                "name": "Bad Kleinkirchheim MSG-NockFly"
            }
        },
        {
            "type": "Feature",
            "geometry": {
                "type": "Point",
                "coordinates": [
                    16.264763,
                    47.958469,
                    0
                ]
            },
            "properties": {
                "name": "Bad Vöslau Flugfeld"
            }
        },
        {
            "type": "Feature",
            "geometry": {
                "type": "Point",
                "coordinates": [
                    13.152688,
                    46.74374399999999,
                    0
                ]
            },
            "properties": {
                "name": "Berg Glocknerhofs Modellflugplatz"
            }
        },
        {
            "type": "Feature",
            "geometry": {
                "type": "Point",
                "coordinates": [
                    13.16202070254422,
                    46.73398729391304,
                    0
                ]
            },
            "properties": {
                "name": "Berg Glocknerhofs Modellflugschule"
            }
        },
        {
            "type": "Feature",
            "geometry": {
                "type": "Point",
                "coordinates": [
                    10.74086076494226,
                    47.40459548137102,
                    0
                ]
            },
            "properties": {
                "name": "Berwang Hotel Edelweiß"
            }
        },
        {
            "type": "Feature",
            "geometry": {
                "type": "Point",
                "coordinates": [
                    10.74513904865644,
                    47.40571008458291,
                    0
                ]
            },
            "properties": {
                "name": "Berwang Hotel Edelweiß Slope"
            }
        },
        {
            "type": "Feature",
            "geometry": {
                "type": "Point",
                "coordinates": [
                    10.775685,
                    47.428465,
                    0
                ]
            },
            "properties": {
                "name": "Bichlbach MSC-AusserfernerFalke"
            }
        },
        {
            "type": "Feature",
            "geometry": {
                "type": "Point",
                "coordinates": [
                    15.914669,
                    48.392598,
                    0
                ]
            },
            "properties": {
                "name": "Bierbaum MF"
            }
        },
        {
            "type": "Feature",
            "geometry": {
                "type": "Point",
                "coordinates": [
                    9.681779892186684,
                    47.20978300996088,
                    0
                ]
            },
            "properties": {
                "name": "Bludenz MBG"
            }
        },
        {
            "type": "Feature",
            "geometry": {
                "type": "Point",
                "coordinates": [
                    16.5901158209562,
                    48.33219188175945,
                    0
                ]
            },
            "properties": {
                "name": "Bockfließ OEMV-Wien"
            }
        },
        {
            "type": "Feature",
            "geometry": {
                "type": "Point",
                "coordinates": [
                    15.768628,
                    48.221681,
                    0
                ]
            },
            "properties": {
                "name": "Böheimkirchen MC"
            }
        },
        {
            "type": "Feature",
            "geometry": {
                "type": "Point",
                "coordinates": [
                    9.677793123247504,
                    47.46406418029191,
                    0
                ]
            },
            "properties": {
                "name": "Bregenz MCB Brigantium"
            }
        },
        {
            "type": "Feature",
            "geometry": {
                "type": "Point",
                "coordinates": [
                    16.10955824287525,
                    48.12861460616196,
                    0
                ]
            },
            "properties": {
                "name": "Breitenfurt MFK Westhang"
            }
        },
        {
            "type": "Feature",
            "geometry": {
                "type": "Point",
                "coordinates": [
                    16.14032079457155,
                    48.13607771275392,
                    0
                ]
            },
            "properties": {
                "name": "Breitenfurt MFK Süd/Nordhang"
            }
        },
        {
            "type": "Feature",
            "geometry": {
                "type": "Point",
                "coordinates": [
                    12.28002307941447,
                    47.44734968937019,
                    0
                ]
            },
            "properties": {
                "name": "Brixen MFC-Brixental"
            }
        },
        {
            "type": "Feature",
            "geometry": {
                "type": "Point",
                "coordinates": [
                    15.65036876804893,
                    47.10609778203799,
                    0
                ]
            },
            "properties": {
                "name": "Brodersdorf Modellflug-AVL"
            }
        },
        {
            "type": "Feature",
            "geometry": {
                "type": "Point",
                "coordinates": [
                    16.73419433518482,
                    48.01822514624383,
                    0
                ]
            },
            "properties": {
                "name": "Bruck/Leitha Modellflugschule"
            }
        },
        {
            "type": "Feature",
            "geometry": {
                "type": "Point",
                "coordinates": [
                    13.74659127489247,
                    47.98331063103991,
                    0
                ]
            },
            "properties": {
                "name": "Desselbrunn MFC Kondor"
            }
        },
        {
            "type": "Feature",
            "geometry": {
                "type": "Point",
                "coordinates": [
                    16.62767252384517,
                    48.2962754555085,
                    0
                ]
            },
            "properties": {
                "name": "Deutsch-Wagram MFC-Falke"
            }
        },
        {
            "type": "Feature",
            "geometry": {
                "type": "Point",
                "coordinates": [
                    12.8298201170338,
                    46.81825829710299,
                    0
                ]
            },
            "properties": {
                "name": "Dölsach MFG"
            }
        },
        {
            "type": "Feature",
            "geometry": {
                "type": "Point",
                "coordinates": [
                    9.689535495745352,
                    47.39969543304383,
                    0
                ]
            },
            "properties": {
                "name": "Dornbirn MSFC"
            }
        },
        {
            "type": "Feature",
            "geometry": {
                "type": "Point",
                "coordinates": [
                    16.85391045172361,
                    48.48028926392833,
                    0
                ]
            },
            "properties": {
                "name": "Dürnkrut LSV"
            }
        },
        {
            "type": "Feature",
            "geometry": {
                "type": "Point",
                "coordinates": [
                    13.77956127395643,
                    47.81133431517631,
                    0
                ]
            },
            "properties": {
                "name": "Ebensee ASKÖ"
            }
        },
        {
            "type": "Feature",
            "geometry": {
                "type": "Point",
                "coordinates": [
                    13.998369,
                    48.025569,
                    0
                ]
            },
            "properties": {
                "name": "Eberstalzell UMFC"
            }
        },
        {
            "type": "Feature",
            "geometry": {
                "type": "Point",
                "coordinates": [
                    16.18287464696477,
                    47.57701561351177,
                    0
                ]
            },
            "properties": {
                "name": "Edlitz MFC-Ebenhof"
            }
        },
        {
            "type": "Feature",
            "geometry": {
                "type": "Point",
                "coordinates": [
                    13.98729218826659,
                    48.33823023809458,
                    0
                ]
            },
            "properties": {
                "name": "Eferding Modellflieger"
            }
        },
        {
            "type": "Feature",
            "geometry": {
                "type": "Point",
                "coordinates": [
                    15.321575,
                    47.15992,
                    0
                ]
            },
            "properties": {
                "name": "Eggenfeld MFG"
            }
        },
        {
            "type": "Feature",
            "geometry": {
                "type": "Point",
                "coordinates": [
                    10.90367262844841,
                    47.39589033095732,
                    0
                ]
            },
            "properties": {
                "name": "Ehrwald MV Zugspitze"
            }
        },
        {
            "type": "Feature",
            "geometry": {
                "type": "Point",
                "coordinates": [
                    16.55234940572102,
                    47.83470142909704,
                    0
                ]
            },
            "properties": {
                "name": "Eisenstadt UMFC"
            }
        },
        {
            "type": "Feature",
            "geometry": {
                "type": "Point",
                "coordinates": [
                    16.56693582886895,
                    47.85248069063506,
                    0
                ]
            },
            "properties": {
                "name": "Eisenstadt-St.Georgen MFV"
            }
        },
        {
            "type": "Feature",
            "geometry": {
                "type": "Point",
                "coordinates": [
                    14.38213903816965,
                    48.34571984290602,
                    0
                ]
            },
            "properties": {
                "name": "Engerwitzdorf EMFC-EWD"
            }
        },
        {
            "type": "Feature",
            "geometry": {
                "type": "Point",
                "coordinates": [
                    14.4624224803998,
                    48.23001029475087,
                    0
                ]
            },
            "properties": {
                "name": "Enns IkarusEnns"
            }
        },
        {
            "type": "Feature",
            "geometry": {
                "type": "Point",
                "coordinates": [
                    16.20413069511167,
                    47.90987580452512,
                    0
                ]
            },
            "properties": {
                "name": "Enzesfeld MBC"
            }
        },
        {
            "type": "Feature",
            "geometry": {
                "type": "Point",
                "coordinates": [
                    14.740473,
                    47.136999,
                    0
                ]
            },
            "properties": {
                "name": "Eppenstein MFSG-Judenburg"
            }
        },
        {
            "type": "Feature",
            "geometry": {
                "type": "Point",
                "coordinates": [
                    13.9760602014267,
                    47.22360336020371,
                    0
                ]
            },
            "properties": {
                "name": "Etrachsee RC-Wasserflug"
            }
        },
        {
            "type": "Feature",
            "geometry": {
                "type": "Point",
                "coordinates": [
                    13.65500725169989,
                    46.7146977901041,
                    0
                ]
            },
            "properties": {
                "name": "Feistritz/Drau MFGF"
            }
        },
        {
            "type": "Feature",
            "geometry": {
                "type": "Point",
                "coordinates": [
                    13.57895561023163,
                    46.58384041050133,
                    0
                ]
            },
            "properties": {
                "name": "Feistritz/Gail MFG"
            }
        },
        {
            "type": "Feature",
            "geometry": {
                "type": "Point",
                "coordinates": [
                    9.568590438858118,
                    47.22338244049086,
                    0
                ]
            },
            "properties": {
                "name": "Feldkirch-Montfort MFG"
            }
        },
        {
            "type": "Feature",
            "geometry": {
                "type": "Point",
                "coordinates": [
                    14.04267904384448,
                    46.69312354676121,
                    0
                ]
            },
            "properties": {
                "name": "Feldkirchen MBG"
            }
        },
        {
            "type": "Feature",
            "geometry": {
                "type": "Point",
                "coordinates": [
                    12.560724,
                    47.444922,
                    0
                ]
            },
            "properties": {
                "name": "Fieberbrunn Modellflugwiese"
            }
        },
        {
            "type": "Feature",
            "geometry": {
                "type": "Point",
                "coordinates": [
                    10.622903,
                    47.05883399999999,
                    0
                ]
            },
            "properties": {
                "name": "Fiss Modellflugplatz Perdatscher Bichl"
            }
        },
        {
            "type": "Feature",
            "geometry": {
                "type": "Point",
                "coordinates": [
                    10.59702719780787,
                    47.07722460181351,
                    0
                ]
            },
            "properties": {
                "name": "Fiss Schönjöchl"
            }
        },
        {
            "type": "Feature",
            "geometry": {
                "type": "Point",
                "coordinates": [
                    10.62253625985686,
                    47.04212022139913,
                    0
                ]
            },
            "properties": {
                "name": "Fiss Serfauser Feld (privat)"
            }
        },
        {
            "type": "Feature",
            "geometry": {
                "type": "Point",
                "coordinates": [
                    16.88600899642468,
                    47.82293049357167,
                    0
                ]
            },
            "properties": {
                "name": "Frauenkirchen MSC"
            }
        },
        {
            "type": "Feature",
            "geometry": {
                "type": "Point",
                "coordinates": [
                    14.38341507000127,
                    46.96667820947128,
                    0
                ]
            },
            "properties": {
                "name": "Friesach 1. Modellflugverein"
            }
        },
        {
            "type": "Feature",
            "geometry": {
                "type": "Point",
                "coordinates": [
                    11.85831007659363,
                    47.3593112462202,
                    0
                ]
            },
            "properties": {
                "name": "Fügen Heli-Club Zillertal",
                "description": "Gastpiloten unerwünscht"
            }
        },
        {
            "type": "Feature",
            "geometry": {
                "type": "Point",
                "coordinates": [
                    11.85797653166899,
                    47.35985685367179,
                    0
                ]
            },
            "properties": {
                "name": "Fügen MSG Zillertal",
                "description": "Gastpiloten unerwünscht"
            }
        },
        {
            "type": "Feature",
            "geometry": {
                "type": "Point",
                "coordinates": [
                    16.081655,
                    47.059462,
                    0
                ]
            },
            "properties": {
                "name": "Fürstenfeld LOGF"
            }
        },
        {
            "type": "Feature",
            "geometry": {
                "type": "Point",
                "coordinates": [
                    15.594794,
                    46.77167,
                    0
                ]
            },
            "properties": {
                "name": "Gabersdorf Modellfreunde Süd"
            }
        },
        {
            "type": "Feature",
            "geometry": {
                "type": "Point",
                "coordinates": [
                    13.19855856354485,
                    46.77829481671657,
                    0
                ]
            },
            "properties": {
                "name": "Gaugen Slope"
            }
        },
        {
            "type": "Feature",
            "geometry": {
                "type": "Point",
                "coordinates": [
                    13.924426,
                    46.69615799999999,
                    0
                ]
            },
            "properties": {
                "name": "Gerlitzen Alp Slope"
            }
        },
        {
            "type": "Feature",
            "geometry": {
                "type": "Point",
                "coordinates": [
                    15.87058162619248,
                    47.1505700103702,
                    0
                ]
            },
            "properties": {
                "name": "Gersdorf MFCPhönix74"
            }
        },
        {
            "type": "Feature",
            "geometry": {
                "type": "Point",
                "coordinates": [
                    15.82794530157241,
                    46.81152121160802,
                    0
                ]
            },
            "properties": {
                "name": "Gnas UMFC"
            }
        },
        {
            "type": "Feature",
            "geometry": {
                "type": "Point",
                "coordinates": [
                    15.62908537518865,
                    48.44516520126963,
                    0
                ]
            },
            "properties": {
                "name": "Gneixendorf USFC-Krems"
            }
        },
        {
            "type": "Feature",
            "geometry": {
                "type": "Point",
                "coordinates": [
                    14.09180150808579,
                    48.32446506575701,
                    0
                ]
            },
            "properties": {
                "name": "Goldwörth ArrowsTeam"
            }
        },
        {
            "type": "Feature",
            "geometry": {
                "type": "Point",
                "coordinates": [
                    16.13645556257989,
                    48.49770134488608,
                    0
                ]
            },
            "properties": {
                "name": "Göllersdorf Michael Toifls Wiese"
            }
        },
        {
            "type": "Feature",
            "geometry": {
                "type": "Point",
                "coordinates": [
                    16.93115011845374,
                    47.90975623779652,
                    0
                ]
            },
            "properties": {
                "name": "Gols MFC-Aero"
            }
        },
        {
            "type": "Feature",
            "geometry": {
                "type": "Point",
                "coordinates": [
                    9.60859982989321,
                    47.30823534405798,
                    0
                ]
            },
            "properties": {
                "name": "Götzis MSFC-Rheintal"
            }
        },
        {
            "type": "Feature",
            "geometry": {
                "type": "Point",
                "coordinates": [
                    15.43960438197004,
                    47.13118542099435,
                    0
                ]
            },
            "properties": {
                "name": "Graz-Andritz SMC"
            }
        },
        {
            "type": "Feature",
            "geometry": {
                "type": "Point",
                "coordinates": [
                    13.16182864845386,
                    46.73441793416168,
                    0
                ]
            },
            "properties": {
                "name": "Greifenburg-Berg Modellbaugruppe"
            }
        },
        {
            "type": "Feature",
            "geometry": {
                "type": "Point",
                "coordinates": [
                    16.24768077406834,
                    48.34931964556207,
                    0
                ]
            },
            "properties": {
                "name": "Greifenstein RC-Wasserflug"
            }
        },
        {
            "type": "Feature",
            "geometry": {
                "type": "Point",
                "coordinates": [
                    14.968402682223,
                    47.97513129425703,
                    0
                ]
            },
            "properties": {
                "name": "Gresten MFC-Eisenstrasse"
            }
        },
        {
            "type": "Feature",
            "geometry": {
                "type": "Point",
                "coordinates": [
                    13.3497101080274,
                    48.15598620795964,
                    0
                ]
            },
            "properties": {
                "name": "Großweiffendorf MettmachFlieger"
            }
        },
        {
            "type": "Feature",
            "geometry": {
                "type": "Point",
                "coordinates": [
                    13.90219936817658,
                    47.63733027829501,
                    0
                ]
            },
            "properties": {
                "name": "Grundlsee IGE-Salzkammergut"
            }
        },
        {
            "type": "Feature",
            "geometry": {
                "type": "Point",
                "coordinates": [
                    16.28263133654462,
                    47.92629855316594,
                    0
                ]
            },
            "properties": {
                "name": "Günselsdorf MBC"
            }
        },
        {
            "type": "Feature",
            "geometry": {
                "type": "Point",
                "coordinates": [
                    16.957086,
                    48.15343899999999,
                    0
                ]
            },
            "properties": {
                "name": "Hainburg-Braunsberg HMSWien Slope"
            }
        },
        {
            "type": "Feature",
            "geometry": {
                "type": "Point",
                "coordinates": [
                    11.48865904711121,
                    47.28627377941086,
                    0
                ]
            },
            "properties": {
                "name": "Hall in Tirol MBG"
            }
        },
        {
            "type": "Feature",
            "geometry": {
                "type": "Point",
                "coordinates": [
                    13.0989961466553,
                    47.85574440788996,
                    0
                ]
            },
            "properties": {
                "name": "Hallwang-Zilling Modellflug-Salzburg"
            }
        },
        {
            "type": "Feature",
            "geometry": {
                "type": "Point",
                "coordinates": [
                    16.35578242306403,
                    48.41154983779907,
                    0
                ]
            },
            "properties": {
                "name": "Harmannsdorf FMBC-Austria"
            }
        },
        {
            "type": "Feature",
            "geometry": {
                "type": "Point",
                "coordinates": [
                    15.99443641540426,
                    47.27750479843118,
                    0
                ]
            },
            "properties": {
                "name": "Hartberg MFC"
            }
        },
        {
            "type": "Feature",
            "geometry": {
                "type": "Point",
                "coordinates": [
                    16.0671886643598,
                    48.74367626597206,
                    0
                ]
            },
            "properties": {
                "name": "Haugsdorf MFCPulkautal"
            }
        },
        {
            "type": "Feature",
            "geometry": {
                "type": "Point",
                "coordinates": [
                    13.790131,
                    47.418424,
                    0
                ]
            },
            "properties": {
                "name": "Haus MBC Dachstein-Tauern"
            }
        },
        {
            "type": "Feature",
            "geometry": {
                "type": "Point",
                "coordinates": [
                    14.3114,
                    48.434009,
                    0
                ]
            },
            "properties": {
                "name": "Hellmonsödt Modellflugplatz"
            }
        },
        {
            "type": "Feature",
            "geometry": {
                "type": "Point",
                "coordinates": [
                    16.08554131529805,
                    47.93172502813513,
                    0
                ]
            },
            "properties": {
                "name": "Hernstein MBC"
            }
        },
        {
            "type": "Feature",
            "geometry": {
                "type": "Point",
                "coordinates": [
                    15.690483,
                    48.301053,
                    0
                ]
            },
            "properties": {
                "name": "Herzogenburg USFC"
            }
        },
        {
            "type": "Feature",
            "geometry": {
                "type": "Point",
                "coordinates": [
                    14.9826,
                    48.66209800000001,
                    0
                ]
            },
            "properties": {
                "name": "Hirschenhof Modellflugplatz"
            }
        },
        {
            "type": "Feature",
            "geometry": {
                "type": "Point",
                "coordinates": [
                    16.76615742518641,
                    48.06587090024453,
                    0
                ]
            },
            "properties": {
                "name": "Höflein MFC"
            }
        },
        {
            "type": "Feature",
            "geometry": {
                "type": "Point",
                "coordinates": [
                    14.7804077201626,
                    47.86067935415861,
                    0
                ]
            },
            "properties": {
                "name": "Hollenstein Ybbstaler MFV Waidach"
            }
        },
        {
            "type": "Feature",
            "geometry": {
                "type": "Point",
                "coordinates": [
                    15.76655374000014,
                    48.59498274554493,
                    0
                ]
            },
            "properties": {
                "name": "Horn MFC NorthwoodHornets"
            }
        },
        {
            "type": "Feature",
            "geometry": {
                "type": "Point",
                "coordinates": [
                    15.61229085614077,
                    48.69472029379011,
                    0
                ]
            },
            "properties": {
                "name": "Horn MSV Woodquarter Pilots"
            }
        },
        {
            "type": "Feature",
            "geometry": {
                "type": "Point",
                "coordinates": [
                    10.8149071971075,
                    47.28212984949328,
                    0
                ]
            },
            "properties": {
                "name": "Imst MCImst"
            }
        },
        {
            "type": "Feature",
            "geometry": {
                "type": "Point",
                "coordinates": [
                    10.733587,
                    47.226219,
                    0
                ]
            },
            "properties": {
                "name": "Imst Modellflug Geierbichel"
            }
        },
        {
            "type": "Feature",
            "geometry": {
                "type": "Point",
                "coordinates": [
                    11.4197079651451,
                    47.28536686881811,
                    0
                ]
            },
            "properties": {
                "name": "Innsbruck MSFG Scheibenbühel"
            }
        },
        {
            "type": "Feature",
            "geometry": {
                "type": "Point",
                "coordinates": [
                    11.455389,
                    47.265535,
                    0
                ]
            },
            "properties": {
                "name": "Innsbruck Pulsfly Modellflug"
            }
        },
        {
            "type": "Feature",
            "geometry": {
                "type": "Point",
                "coordinates": [
                    11.21405139067322,
                    47.27393234334499,
                    0
                ]
            },
            "properties": {
                "name": "Inzing MBC"
            }
        },
        {
            "type": "Feature",
            "geometry": {
                "type": "Point",
                "coordinates": [
                    16.11245450081956,
                    46.92830778507828,
                    0
                ]
            },
            "properties": {
                "name": "Jennersdorf UMFC"
            }
        },
        {
            "type": "Feature",
            "geometry": {
                "type": "Point",
                "coordinates": [
                    15.22361544597449,
                    48.4054720277351,
                    0
                ]
            },
            "properties": {
                "name": "Jungschlag MFC"
            }
        },
        {
            "type": "Feature",
            "geometry": {
                "type": "Point",
                "coordinates": [
                    16.208532,
                    48.126892,
                    0
                ]
            },
            "properties": {
                "name": "Kaltenleutgeben Flugfeld"
            }
        },
        {
            "type": "Feature",
            "geometry": {
                "type": "Point",
                "coordinates": [
                    15.38943116716321,
                    47.47256185897962,
                    0
                ]
            },
            "properties": {
                "name": "Kapfenberg KSV-Modellflug"
            }
        },
        {
            "type": "Feature",
            "geometry": {
                "type": "Point",
                "coordinates": [
                    13.543184,
                    47.953241,
                    0
                ]
            },
            "properties": {
                "name": "Kemating MFC-Skydogs"
            }
        },
        {
            "type": "Feature",
            "geometry": {
                "type": "Point",
                "coordinates": [
                    16.16263717289307,
                    47.24149020091575,
                    0
                ]
            },
            "properties": {
                "name": "Kemeten MFC Bruchpiloten"
            }
        },
        {
            "type": "Feature",
            "geometry": {
                "type": "Point",
                "coordinates": [
                    14.12907797331792,
                    47.86918839843583,
                    0
                ]
            },
            "properties": {
                "name": "Kirchdorf-Micheldorf SMBC"
            }
        },
        {
            "type": "Feature",
            "geometry": {
                "type": "Point",
                "coordinates": [
                    16.29658441164908,
                    47.52176220088397,
                    0
                ]
            },
            "properties": {
                "name": "Kirchschlag UMFC"
            }
        },
        {
            "type": "Feature",
            "geometry": {
                "type": "Point",
                "coordinates": [
                    14.20908000888086,
                    46.53488597920944,
                    0
                ]
            },
            "properties": {
                "name": "Klagenfurt MFG"
            }
        },
        {
            "type": "Feature",
            "geometry": {
                "type": "Point",
                "coordinates": [
                    15.01083,
                    47.144828,
                    0
                ]
            },
            "properties": {
                "name": "Köflach MFG-Ikarus Graden"
            }
        },
        {
            "type": "Feature",
            "geometry": {
                "type": "Point",
                "coordinates": [
                    15.04433395640135,
                    47.06488216258229,
                    0
                ]
            },
            "properties": {
                "name": "Köflach MFG-Ikarus Maria Lankowitz"
            }
        },
        {
            "type": "Feature",
            "geometry": {
                "type": "Point",
                "coordinates": [
                    15.93916876208093,
                    48.43377006694068,
                    0
                ]
            },
            "properties": {
                "name": "Königsbrunn MFG"
            }
        },
        {
            "type": "Feature",
            "geometry": {
                "type": "Point",
                "coordinates": [
                    14.931814,
                    46.8186,
                    0
                ]
            },
            "properties": {
                "name": "Koralpe Waldrast Slope"
            }
        },
        {
            "type": "Feature",
            "geometry": {
                "type": "Point",
                "coordinates": [
                    16.345378,
                    48.362502,
                    0
                ]
            },
            "properties": {
                "name": "Korneuburg HSV Burg Kreuzenstein"
            }
        },
        {
            "type": "Feature",
            "geometry": {
                "type": "Point",
                "coordinates": [
                    16.32029486829628,
                    48.34042847402532,
                    0
                ]
            },
            "properties": {
                "name": "Korneuburg RC-Wasserflug"
            }
        },
        {
            "type": "Feature",
            "geometry": {
                "type": "Point",
                "coordinates": [
                    12.46072402171034,
                    47.62938186731882,
                    0
                ]
            },
            "properties": {
                "name": "Kössen MFC"
            }
        },
        {
            "type": "Feature",
            "geometry": {
                "type": "Point",
                "coordinates": [
                    13.192362,
                    47.946804,
                    0
                ]
            },
            "properties": {
                "name": "Köstendorf IMG"
            }
        },
        {
            "type": "Feature",
            "geometry": {
                "type": "Point",
                "coordinates": [
                    13.0318,
                    46.662923,
                    0
                ]
            },
            "properties": {
                "name": "Kötschach-Mauthen MFG"
            }
        },
        {
            "type": "Feature",
            "geometry": {
                "type": "Point",
                "coordinates": [
                    13.19367533307922,
                    47.85547528409073,
                    0
                ]
            },
            "properties": {
                "name": "Kraiwiesen MFC-Salzburg +F2"
            }
        },
        {
            "type": "Feature",
            "geometry": {
                "type": "Point",
                "coordinates": [
                    13.944682,
                    48.209161,
                    0
                ]
            },
            "properties": {
                "name": "Krenglbach Modellflugplatz"
            }
        },
        {
            "type": "Feature",
            "geometry": {
                "type": "Point",
                "coordinates": [
                    13.196604,
                    47.612819,
                    0
                ]
            },
            "properties": {
                "name": "Kuchl MFC-Arriva-Anderle"
            }
        },
        {
            "type": "Feature",
            "geometry": {
                "type": "Point",
                "coordinates": [
                    15.65168922585612,
                    48.31760099062569,
                    0
                ]
            },
            "properties": {
                "name": "Kuffern MFC-Silbergrube"
            }
        },
        {
            "type": "Feature",
            "geometry": {
                "type": "Point",
                "coordinates": [
                    16.43311589161925,
                    48.73429345791612,
                    0
                ]
            },
            "properties": {
                "name": "Laa/Thaya UMBC"
            }
        },
        {
            "type": "Feature",
            "geometry": {
                "type": "Point",
                "coordinates": [
                    16.51431131125215,
                    47.57865893592678,
                    0
                ]
            },
            "properties": {
                "name": "Lackendorf MFC"
            }
        },
        {
            "type": "Feature",
            "geometry": {
                "type": "Point",
                "coordinates": [
                    15.58652047730181,
                    47.55536300922063,
                    0
                ]
            },
            "properties": {
                "name": "Langenwang 1. EMFK"
            }
        },
        {
            "type": "Feature",
            "geometry": {
                "type": "Point",
                "coordinates": [
                    15.621531,
                    48.45979599999999,
                    0
                ]
            },
            "properties": {
                "name": "Lengenfeld Modellflugschule-Freeflight"
            }
        },
        {
            "type": "Feature",
            "geometry": {
                "type": "Point",
                "coordinates": [
                    12.76854255409115,
                    46.81893744979864,
                    0
                ]
            },
            "properties": {
                "name": "Lienz MFC"
            }
        },
        {
            "type": "Feature",
            "geometry": {
                "type": "Point",
                "coordinates": [
                    14.26216111042573,
                    47.55756766872972,
                    0
                ]
            },
            "properties": {
                "name": "Liezen WSV"
            }
        },
        {
            "type": "Feature",
            "geometry": {
                "type": "Point",
                "coordinates": [
                    14.32277535094179,
                    48.31413702633763,
                    0
                ]
            },
            "properties": {
                "name": "Linz MFC-Linz"
            }
        },